{
  "requests": [
    {
      "status": "Resolved",
      "personName": "Rajesh Kumar",
      "requesteeNumber": "+1234567890",
      "dateTimeIST": "2023-10-03 15:30 IST",
      "location": {
        "longitude": "77.5946",
        "latitude": "12.9716"
      },
      "requestID": "REQ001",
      "disasterType": "Earthquake"
    },
    {
      "status": "Not Resolved",
      "personName": "Priya Sharma",
      "requesteeNumber": "+9876543210",
      "dateTimeIST": "2023-10-04 09:45 IST",
      "location": {
        "longitude": "78.4867",
        "latitude": "17.3850"
      },
      "requestID": "REQ002",
      "disasterType": "Flood"
    },
    {
      "status": "Not Resolved",
      "personName": "Amit Singh",
      "requesteeNumber": "+1122334455",
      "dateTimeIST": "2023-10-05 12:00 IST",
      "location": {
        "longitude": "77.2090",
        "latitude": "28.6139"
      },
      "requestID": "REQ003",
      "disasterType": "Fire"
    },
    {
      "status": "Resolved",
      "personName": "Neha Gupta",
      "requesteeNumber": "+9988776655",
      "dateTimeIST": "2023-10-06 17:20 IST",
      "location": {
        "longitude": "80.2707",
        "latitude": "13.0827"
      },
      "requestID": "REQ004",
      "disasterType": "Medical Emergency"
    },
    {
      "status": "Not Resolved",
      "personName": "Vikram Yadav",
      "requesteeNumber": "+6677889900",
      "dateTimeIST": "2023-10-07 19:10 IST",
      "location": {
        "longitude": "88.3639",
        "latitude": "22.5726"
      },
      "requestID": "REQ005",
      "disasterType": "Road Accident"
    }
  ]
}
